{
  "restaurants": [
    {
      "id": "1",
      "name": "度小月擔仔麵",
      "address": "台南市中西區中正路16號",
      "rating": 4.2,
      "price_level": 2,
      "types": ["中式", "麵食"],
      "photo_urls": [
        "assets/restaurants_collection/douhsiao/douhsiao_1.jpg"
      ],
      "lat": 22.9971,
      "lng": 120.1968,
      "open_now": true,
      "phone": "06-225-9554",
      "website": "https://www.douhsiao.com.tw"
    },
    {
      "id": "2",
      "name": "阿堂鹹粥",
      "address": "台南市中西區西門路一段728號",
      "rating": 4.5,
      "price_level": 1,
      "types": ["中式", "粥品"],
      "photo_urls": [
        "assets/restaurants_collection/atang/atang_1.jpg"
      ],
      "lat": 22.9956,
      "lng": 120.1962,
      "open_now": true,
      "phone": "06-213-2572",
      "website": ""
    },
    {
      "id": "3",
      "name": "同記安平豆花",
      "address": "台南市安平區安北路433號",
      "rating": 4.3,
      "price_level": 1,
      "types": ["甜點", "豆花"],
      "photo_urls": [
        "assets/restaurants_collection/tongji/tongji_1.jpg"
      ],
      "lat": 23.0001,
      "lng": 120.1612,
      "open_now": true,
      "phone": "06-391-5385",
      "website": ""
    },
    {
      "id": "4",
      "name": "周氏蝦捲",
      "address": "台南市安平區安平路408號",
      "rating": 4.1,
      "price_level": 2,
      "types": ["中式", "海鮮"],
      "photo_urls": [],
      "lat": 22.9989,
      "lng": 120.1625,
      "open_now": true,
      "phone": "06-229-2618",
      "website": "https://www.chous.com.tw"
    },
    {
      "id": "5",
      "name": "赤崁擔仔麵",
      "address": "台南市中西區民族路二段216號",
      "rating": 4.4,
      "price_level": 2,
      "types": ["中式", "麵食"],
      "photo_urls": [],
      "lat": 22.9965,
      "lng": 120.1985,
      "open_now": true,
      "phone": "06-225-0036",
      "website": ""
    },
    {
      "id": "6",
      "name": "阿明豬心冬粉",
      "address": "台南市中西區保安路72號",
      "rating": 4.6,
      "price_level": 1,
      "types": ["中式", "冬粉"],
      "photo_urls": [],
      "lat": 22.9945,
      "lng": 120.1955,
      "open_now": true,
      "phone": "06-223-3741",
      "website": ""
    },
    {
      "id": "7",
      "name": "富盛號碗粿",
      "address": "台南市中西區西門路二段333巷8號",
      "rating": 4.3,
      "price_level": 1,
      "types": ["中式", "碗粿"],
      "photo_urls": [
        "assets/restaurants_collection/fusheng/fusheng_1.jpg"
      ],
      "lat": 22.9958,
      "lng": 120.1972,
      "open_now": true,
      "phone": "06-227-4101",
      "website": ""
    },
    {
      "id": "8",
      "name": "阿松割包",
      "address": "台南市中西區國華街三段181號",
      "rating": 4.2,
      "price_level": 1,
      "types": ["中式", "割包"],
      "photo_urls": [],
      "lat": 22.9962,
      "lng": 120.1968,
      "open_now": true,
      "phone": "06-220-0898",
      "website": ""
    },
    {
      "id": "9",
      "name": "義豐阿川冬瓜茶",
      "address": "台南市中西區永福路二段212號",
      "rating": 4.0,
      "price_level": 1,
      "types": ["飲料", "冬瓜茶"],
      "photo_urls": [],
      "lat": 22.9975,
      "lng": 120.1975,
      "open_now": true,
      "phone": "06-222-3779",
      "website": ""
    },
    {
      "id": "10",
      "name": "阿憨鹹粥",
      "address": "台南市中西區公園南路169號",
      "rating": 4.4,
      "price_level": 1,
      "types": ["中式", "粥品"],
      "photo_urls": [],
      "lat": 22.9935,
      "lng": 120.1945,
      "open_now": true,
      "phone": "06-221-8699",
      "website": ""
    }
  ]
} 